{"matchCount":8,"bbqList":[{"address":"Windsor VIC","name":"GLADSTONE GARDENS","fbUid":"100000117802502","longitude":144.98695850372314,"bbqId":4957443452829696,"latitude":-37.85337327077368,"type":"Unknown","distanceToBbq":"1.9","fbName":"fb-user"},{"address":"Albert Park VIC","name":"AUGHTIE DRIVE","fbUid":"100000117802502","longitude":144.96583610773087,"bbqId":5567839909969920,"latitude":-37.84835172821059,"type":"Unknown","distanceToBbq":"1.9","fbName":"fb-user"},{"address":"Bath St, St Kilda VIC","name":"J DUGGAN RESERVE","fbUid":"","longitude":144.9871838092804,"bbqId":5345825534246912,"latitude":-37.863372131970976,"type":"Unknown","distanceToBbq":"1.5","fbName":""},{"address":"Waterloo Cres, St Kilda VIC","name":"WATERLOO RESERVE","fbUid":"","longitude":144.98332142829895,"bbqId":4626195173867520,"latitude":-37.86177972370053,"type":"Unknown","distanceToBbq":"1.2","fbName":""},{"address":"Canterbury Rd, St Kilda West VIC","name":"JOHNSON RESERVE","fbUid":"","longitude":144.97186839580536,"bbqId":5856273807441920,"latitude":-37.85528945714278,"type":"Unknown","distanceToBbq":"1.1","fbName":""},{"address":"St Kilda VIC","name":"MARINA TRIANGLE RESERVE","fbUid":"100000117802502","longitude":144.97544646263123,"bbqId":4887074708652032,"latitude":-37.87227035036518,"type":"Unknown","distanceToBbq":"0.9","fbName":"fb-user"},{"address":"Jacka Boulevard, VIC","name":"ST KILDA FORESHORE","fbUid":"","longitude":144.97374057769775,"bbqId":6481208728879104,"latitude":-37.86741398382911,"type":"Unknown","distanceToBbq":"0.4","fbName":""},{"address":"Pier Rd, St Kilda West VIC","name":"CATANI GARDENS","fbUid":"","longitude":144.9716055393219,"bbqId":6366722080636928,"latitude":-37.861644198003674,"type":"Unknown","distanceToBbq":"0.4","fbName":""}]}
